[
    {
        "Cases": 1819,
        "CasesPerMillion": 9980,
        "County": "Baldwin County",
        "FIPS": "1003",
        "Population": "182265",
        "State": "AL",
        "lat": 30.659218,
        "lon": -87.746067
    },
    {
        "Cases": 264,
        "CasesPerMillion": 11521,
        "County": "Bibb County",
        "FIPS": "1007",
        "Population": "22915",
        "State": "AL",
        "lat": 33.015893,
        "lon": -87.127148
    },
    {
        "Cases": 397,
        "CasesPerMillion": 36375,
        "County": "Bullock County",
        "FIPS": "1011",
        "Population": "10914",
        "State": "AL",
        "lat": 32.101759,
        "lon": -85.717261
    },
    {
        "Cases": 741,
        "CasesPerMillion": 6249,
        "County": "Calhoun County",
        "FIPS": "1015",
        "Population": "118572",
        "State": "AL",
        "lat": 33.771706,
        "lon": -85.822513
    },
    {
        "Cases": 165,
        "CasesPerMillion": 6349,
        "County": "Cherokee County",
        "FIPS": "1019",
        "Population": "25989",
        "State": "AL",
        "lat": 34.069515,
        "lon": -85.654242
    },
    {
        "Cases": 237,
        "CasesPerMillion": 17101,
        "County": "Choctaw County",
        "FIPS": "1023",
        "Population": "13859",
        "State": "AL",
        "lat": 31.991008,
        "lon": -88.248887
    },
    {
        "Cases": 109,
        "CasesPerMillion": 7824,
        "County": "Clay County",
        "FIPS": "1027",
        "Population": "13932",
        "State": "AL",
        "lat": 33.267809,
        "lon": -85.862051
    },
    {
        "Cases": 530,
        "CasesPerMillion": 10611,
        "County": "Coffee County",
        "FIPS": "1031",
        "Population": "49948",
        "State": "AL",
        "lat": 31.402183,
        "lon": -85.989201
    },
    {
        "Cases": 282,
        "CasesPerMillion": 21318,
        "County": "Conecuh County",
        "FIPS": "1035",
        "Population": "13228",
        "State": "AL",
        "lat": 31.428293,
        "lon": -86.992029
    },
    {
        "Cases": 556,
        "CasesPerMillion": 14723,
        "County": "Covington County",
        "FIPS": "1039",
        "Population": "37765",
        "State": "AL",
        "lat": 31.243987,
        "lon": -86.448721
    },
    {
        "Cases": 785,
        "CasesPerMillion": 9763,
        "County": "Cullman County",
        "FIPS": "1043",
        "Population": "80406",
        "State": "AL",
        "lat": 34.131923,
        "lon": -86.869267
    },
    {
        "Cases": 1133,
        "CasesPerMillion": 25856,
        "County": "Dallas County",
        "FIPS": "1047",
        "Population": "43820",
        "State": "AL",
        "lat": 32.33354,
        "lon": -87.114356
    },
    {
        "Cases": 1254,
        "CasesPerMillion": 15813,
        "County": "Elmore County",
        "FIPS": "1051",
        "Population": "79303",
        "State": "AL",
        "lat": 32.597229,
        "lon": -86.142739
    },
    {
        "Cases": 1287,
        "CasesPerMillion": 12324,
        "County": "Etowah County",
        "FIPS": "1055",
        "Population": "104430",
        "State": "AL",
        "lat": 34.047638,
        "lon": -86.03442
    },
    {
        "Cases": 1016,
        "CasesPerMillion": 32046,
        "County": "Franklin County",
        "FIPS": "1059",
        "Population": "31704",
        "State": "AL",
        "lat": 34.441988,
        "lon": -87.842815
    },
    {
        "Cases": 217,
        "CasesPerMillion": 23991,
        "County": "Greene County",
        "FIPS": "1063",
        "Population": "9045",
        "State": "AL",
        "lat": 32.844497,
        "lon": -87.964201
    },
    {
        "Cases": 185,
        "CasesPerMillion": 10692,
        "County": "Henry County",
        "FIPS": "1067",
        "Population": "17302",
        "State": "AL",
        "lat": 31.516978,
        "lon": -85.239971
    },
    {
        "Cases": 552,
        "CasesPerMillion": 10371,
        "County": "Jackson County",
        "FIPS": "1071",
        "Population": "53227",
        "State": "AL",
        "lat": 34.763522,
        "lon": -85.9774
    },
    {
        "Cases": 118,
        "CasesPerMillion": 8102,
        "County": "Lamar County",
        "FIPS": "1075",
        "Population": "14564",
        "State": "AL",
        "lat": 33.787085,
        "lon": -88.087431
    },
    {
        "Cases": 186,
        "CasesPerMillion": 5417,
        "County": "Lawrence County",
        "FIPS": "1079",
        "Population": "34339",
        "State": "AL",
        "lat": 34.529776,
        "lon": -87.321865
    },
    {
        "Cases": 823,
        "CasesPerMillion": 9942,
        "County": "Limestone County",
        "FIPS": "1083",
        "Population": "82782",
        "State": "AL",
        "lat": 34.810239,
        "lon": -86.9814
    },
    {
        "Cases": 254,
        "CasesPerMillion": 11840,
        "County": "Macon County",
        "FIPS": "1087",
        "Population": "21452",
        "State": "AL",
        "lat": 32.387027,
        "lon": -85.692887
    },
    {
        "Cases": 415,
        "CasesPerMillion": 19737,
        "County": "Marengo County",
        "FIPS": "1091",
        "Population": "21027",
        "State": "AL",
        "lat": 32.247591,
        "lon": -87.791091
    },
    {
        "Cases": 2310,
        "CasesPerMillion": 24834,
        "County": "Marshall County",
        "FIPS": "1095",
        "Population": "93019",
        "State": "AL",
        "lat": 34.309564,
        "lon": -86.321668
    },
    {
        "Cases": 326,
        "CasesPerMillion": 14132,
        "County": "Monroe County",
        "FIPS": "1099",
        "Population": "23068",
        "State": "AL",
        "lat": 31.580332,
        "lon": -87.383266
    },
    {
        "Cases": 1641,
        "CasesPerMillion": 13733,
        "County": "Morgan County",
        "FIPS": "1103",
        "Population": "119490",
        "State": "AL",
        "lat": 34.454484,
        "lon": -86.846402
    },
    {
        "Cases": 302,
        "CasesPerMillion": 15294,
        "County": "Pickens County",
        "FIPS": "1107",
        "Population": "19746",
        "State": "AL",
        "lat": 33.296809,
        "lon": -88.096878
    },
    {
        "Cases": 309,
        "CasesPerMillion": 13486,
        "County": "Randolph County",
        "FIPS": "1111",
        "Population": "22913",
        "State": "AL",
        "lat": 33.296475,
        "lon": -85.464068
    },
    {
        "Cases": 797,
        "CasesPerMillion": 9534,
        "County": "St. Clair County",
        "FIPS": "1115",
        "Population": "83593",
        "State": "AL",
        "lat": 33.712963,
        "lon": -86.315663
    },
    {
        "Cases": 316,
        "CasesPerMillion": 22960,
        "County": "Sumter County",
        "FIPS": "1119",
        "Population": "13763",
        "State": "AL",
        "lat": 32.597481,
        "lon": -88.200057
    },
    {
        "Cases": 707,
        "CasesPerMillion": 16989,
        "County": "Tallapoosa County",
        "FIPS": "1123",
        "Population": "41616",
        "State": "AL",
        "lat": 32.863369,
        "lon": -85.799553
    },
    {
        "Cases": 1243,
        "CasesPerMillion": 18546,
        "County": "Walker County",
        "FIPS": "1127",
        "Population": "67023",
        "State": "AL",
        "lat": 33.791571,
        "lon": -87.301092
    },
    {
        "Cases": 344,
        "CasesPerMillion": 29477,
        "County": "Wilcox County",
        "FIPS": "1131",
        "Population": "11670",
        "State": "AL",
        "lat": 31.99033,
        "lon": -87.302205
    },
    {
        "Cases": 2,
        "CasesPerMillion": 637,
        "County": "Aleutians East Borough",
        "FIPS": "2013",
        "Population": "3141",
        "State": "AK",
        "lat": 55.243722,
        "lon": -161.950749
    },
    {
        "Cases": 870,
        "CasesPerMillion": 2981,
        "County": "Municipality of Anchorage",
        "FIPS": "2020",
        "Population": "291826",
        "State": "AK",
        "lat": 61.177549,
        "lon": -149.274354
    },
    {
        "Cases": 5,
        "CasesPerMillion": 5015,
        "County": "Bristol Bay Borough",
        "FIPS": "2060",
        "Population": "997",
        "State": "AK",
        "lat": 58.731373,
        "lon": -156.986612
    },
    {
        "Cases": 21,
        "CasesPerMillion": 4333,
        "County": "Dillingham Census Area",
        "FIPS": "2070",
        "Population": "4847",
        "State": "AK",
        "lat": 59.824816,
        "lon": -158.602233
    },
    {
        "Cases": 7,
        "CasesPerMillion": 2791,
        "County": "Haines Borough",
        "FIPS": "2100",
        "Population": "2508",
        "State": "AK",
        "lat": 59.099905,
        "lon": -135.578102
    },
    {
        "Cases": 58,
        "CasesPerMillion": 1855,
        "County": "City and Borough of Juneau",
        "FIPS": "2110",
        "Population": "31275",
        "State": "AK",
        "lat": 58.3727,
        "lon": -134.178781
    },
    {
        "Cases": 24,
        "CasesPerMillion": 1781,
        "County": "Ketchikan Gateway Borough",
        "FIPS": "2130",
        "Population": "13477",
        "State": "AK",
        "lat": 55.449938,
        "lon": -131.106685
    },
    {
        "Cases": 3,
        "County": "Kusilvak Census Area",
        "FIPS": "2158"
    },
    {
        "Cases": 174,
        "CasesPerMillion": 1955,
        "County": "Matanuska-Susitna Borough",
        "FIPS": "2170",
        "Population": "88995",
        "State": "AK",
        "lat": 62.182174,
        "lon": -149.407974
    },
    {
        "Cases": 6,
        "CasesPerMillion": 636,
        "County": "North Slope Borough",
        "FIPS": "2185",
        "Population": "9430",
        "State": "AK",
        "lat": 69.449343,
        "lon": -153.47283
    },
    {
        "Cases": 10,
        "CasesPerMillion": 2621,
        "County": "Petersburg Census Area",
        "FIPS": "2195",
        "Population": "3815",
        "State": "AK",
        "lat": 56.639612,
        "lon": -133.527996
    },
    {
        "Cases": 15,
        "CasesPerMillion": 1689,
        "County": "Sitka City and Borough",
        "FIPS": "2220",
        "Population": "8881",
        "State": "AK",
        "lat": 57.142509,
        "lon": -135.332624
    },
    {
        "Cases": 3,
        "CasesPerMillion": 427,
        "County": "Southeast Fairbanks Census Area",
        "FIPS": "2240",
        "Population": "7029",
        "State": "AK",
        "lat": 63.864997,
        "lon": -143.218628
    },
    {
        "Cases": 0,
        "CasesPerMillion": 0,
        "County": "Wade Hampton Census Area",
        "FIPS": "2270",
        "Population": "7459",
        "State": "AK",
        "lat": 62.283174,
        "lon": -163.19095
    },
    {
        "Cases": 0,
        "CasesPerMillion": 0,
        "County": "Yakutat City and Borough",
        "FIPS": "2282",
        "Population": "662",
        "State": "AK",
        "lat": 59.999083,
        "lon": -140.239593
    },
    {
        "Cases": 2735,
        "CasesPerMillion": 38242,
        "County": "Apache County",
        "FIPS": "4001",
        "Population": "71518",
        "State": "AZ",
        "lat": 35.385845,
        "lon": -109.493747
    },
    {
        "Cases": 2647,
        "CasesPerMillion": 19692,
        "County": "Coconino County",
        "FIPS": "4005",
        "Population": "134421",
        "State": "AZ",
        "lat": 35.829692,
        "lon": -111.773728
    },
    {
        "Cases": 278,
        "CasesPerMillion": 7469,
        "County": "Graham County",
        "FIPS": "4009",
        "Population": "37220",
        "State": "AZ",
        "lat": 32.931828,
        "lon": -109.87831
    },
    {
        "Cases": 434,
        "CasesPerMillion": 21182,
        "County": "La Paz County",
        "FIPS": "4012",
        "Population": "20489",
        "State": "AZ",
        "lat": 33.727625,
        "lon": -114.038793
    },
    {
        "Cases": 2229,
        "CasesPerMillion": 11135,
        "County": "Mohave County",
        "FIPS": "4015",
        "Population": "200186",
        "State": "AZ",
        "lat": 35.717705,
        "lon": -113.749689
    },
    {
        "Cases": 13270,
        "CasesPerMillion": 13537,
        "County": "Pima County",
        "FIPS": "4019",
        "Population": "980263",
        "State": "AZ",
        "lat": 32.128237,
        "lon": -111.783018
    },
    {
        "Cases": 2270,
        "CasesPerMillion": 47870,
        "County": "Santa Cruz County",
        "FIPS": "4023",
        "Population": "47420",
        "State": "AZ",
        "lat": 31.525904,
        "lon": -110.84519
    },
    {
        "Cases": 9086,
        "CasesPerMillion": 46416,
        "County": "Yuma County",
        "FIPS": "4027",
        "Population": "195751",
        "State": "AZ",
        "lat": 32.773942,
        "lon": -113.910905
    },
    {
        "Cases": 125,
        "CasesPerMillion": 5720,
        "County": "Ashley County",
        "FIPS": "5003",
        "Population": "21853",
        "State": "AR",
        "lat": 33.190835,
        "lon": -91.772267
    },
    {
        "Cases": 3789,
        "CasesPerMillion": 17119,
        "County": "Benton County",
        "FIPS": "5007",
        "Population": "221339",
        "State": "AR",
        "lat": 36.337825,
        "lon": -94.256187
    },
    {
        "Cases": 91,
        "CasesPerMillion": 7908,
        "County": "Bradley County",
        "FIPS": "5011",
        "Population": "11508",
        "State": "AR",
        "lat": 33.463819,
        "lon": -92.168164
    },
    {
        "Cases": 262,
        "CasesPerMillion": 9546,
        "County": "Carroll County",
        "FIPS": "5015",
        "Population": "27446",
        "State": "AR",
        "lat": 36.337774,
        "lon": -93.541663
    },
    {
        "Cases": 94,
        "CasesPerMillion": 4088,
        "County": "Clark County",
        "FIPS": "5019",
        "Population": "22995",
        "State": "AR",
        "lat": 34.053312,
        "lon": -93.176205
    },
    {
        "Cases": 153,
        "CasesPerMillion": 5891,
        "County": "Cleburne County",
        "FIPS": "5023",
        "Population": "25970",
        "State": "AR",
        "lat": 35.566288,
        "lon": -92.059974
    },
    {
        "Cases": 132,
        "CasesPerMillion": 5376,
        "County": "Columbia County",
        "FIPS": "5027",
        "Population": "24552",
        "State": "AR",
        "lat": 33.21507,
        "lon": -93.226901
    },
    {
        "Cases": 701,
        "CasesPerMillion": 7269,
        "County": "Craighead County",
        "FIPS": "5031",
        "Population": "96443",
        "State": "AR",
        "lat": 35.828268,
        "lon": -90.630411
    },
    {
        "Cases": 929,
        "CasesPerMillion": 18251,
        "County": "Crittenden County",
        "FIPS": "5035",
        "Population": "50902",
        "State": "AR",
        "lat": 35.211878,
        "lon": -90.315331
    },
    {
        "Cases": 20,
        "CasesPerMillion": 2464,
        "County": "Dallas County",
        "FIPS": "5039",
        "Population": "8116",
        "State": "AR",
        "lat": 33.967823,
        "lon": -92.653999
    },
    {
        "Cases": 111,
        "CasesPerMillion": 5997,
        "County": "Drew County",
        "FIPS": "5043",
        "Population": "18509",
        "State": "AR",
        "lat": 33.587242,
        "lon": -91.722778
    },
    {
        "Cases": 37,
        "CasesPerMillion": 2041,
        "County": "Franklin County",
        "FIPS": "5047",
        "Population": "18125",
        "State": "AR",
        "lat": 35.508573,
        "lon": -93.887672
    },
    {
        "Cases": 442,
        "CasesPerMillion": 4603,
        "County": "Garland County",
        "FIPS": "5051",
        "Population": "96024",
        "State": "AR",
        "lat": 34.578861,
        "lon": -93.146915
    },
    {
        "Cases": 168,
        "CasesPerMillion": 3991,
        "County": "Greene County",
        "FIPS": "5055",
        "Population": "42090",
        "State": "AR",
        "lat": 36.119922,
        "lon": -90.565241
    },
    {
        "Cases": 1344,
        "CasesPerMillion": 40823,
        "County": "Hot Spring County",
        "FIPS": "5059",
        "Population": "32923",
        "State": "AR",
        "lat": 34.315177,
        "lon": -92.944147
    },
    {
        "Cases": 107,
        "CasesPerMillion": 2920,
        "County": "Independence County",
        "FIPS": "5063",
        "Population": "36647",
        "State": "AR",
        "lat": 35.737499,
        "lon": -91.559942
    },
    {
        "Cases": 44,
        "CasesPerMillion": 2445,
        "County": "Jackson County",
        "FIPS": "5067",
        "Population": "17997",
        "State": "AR",
        "lat": 35.596605,
        "lon": -91.223178
    },
    {
        "Cases": 476,
        "CasesPerMillion": 18637,
        "County": "Johnson County",
        "FIPS": "5071",
        "Population": "25540",
        "State": "AR",
        "lat": 35.573359,
        "lon": -93.466322
    },
    {
        "Cases": 133,
        "CasesPerMillion": 7637,
        "County": "Lawrence County",
        "FIPS": "5075",
        "Population": "17415",
        "State": "AR",
        "lat": 36.041098,
        "lon": -91.101153
    },
    {
        "Cases": 1118,
        "CasesPerMillion": 79100,
        "County": "Lincoln County",
        "FIPS": "5079",
        "Population": "14134",
        "State": "AR",
        "lat": 33.957665,
        "lon": -91.727624
    },
    {
        "Cases": 103,
        "CasesPerMillion": 4608,
        "County": "Logan County",
        "FIPS": "5083",
        "Population": "22353",
        "State": "AR",
        "lat": 35.21855,
        "lon": -93.720563
    },
    {
        "Cases": 227,
        "CasesPerMillion": 14443,
        "County": "Madison County",
        "FIPS": "5087",
        "Population": "15717",
        "State": "AR",
        "lat": 36.012545,
        "lon": -93.724053
    },
    {
        "Cases": 329,
        "CasesPerMillion": 7570,
        "County": "Miller County",
        "FIPS": "5091",
        "Population": "43462",
        "State": "AR",
        "lat": 33.305505,
        "lon": -93.901509
    },
    {
        "Cases": 29,
        "CasesPerMillion": 3559,
        "County": "Monroe County",
        "FIPS": "5095",
        "Population": "8149",
        "State": "AR",
        "lat": 34.679513,
        "lon": -91.203314
    },
    {
        "Cases": 116,
        "CasesPerMillion": 12893,
        "County": "Nevada County",
        "FIPS": "5099",
        "Population": "8997",
        "State": "AR",
        "lat": 33.666699,
        "lon": -93.305072
    },
    {
        "Cases": 44,
        "CasesPerMillion": 1685,
        "County": "Ouachita County",
        "FIPS": "5103",
        "Population": "26120",
        "State": "AR",
        "lat": 33.591158,
        "lon": -92.878418
    },
    {
        "Cases": 205,
        "CasesPerMillion": 9422,
        "County": "Phillips County",
        "FIPS": "5107",
        "Population": "21757",
        "State": "AR",
        "lat": 34.425842,
        "lon": -90.848386
    },
    {
        "Cases": 90,
        "CasesPerMillion": 3661,
        "County": "Poinsett County",
        "FIPS": "5111",
        "Population": "24583",
        "State": "AR",
        "lat": 35.568981,
        "lon": -90.680595
    },
    {
        "Cases": 817,
        "CasesPerMillion": 13230,
        "County": "Pope County",
        "FIPS": "5115",
        "Population": "61754",
        "State": "AR",
        "lat": 35.455297,
        "lon": -93.031535
    },
    {
        "Cases": 3578,
        "CasesPerMillion": 9348,
        "County": "Pulaski County",
        "FIPS": "5119",
        "Population": "382748",
        "State": "AR",
        "lat": 34.773988,
        "lon": -92.316515
    },
    {
        "Cases": 942,
        "CasesPerMillion": 33336,
        "County": "St. Francis County",
        "FIPS": "5123",
        "Population": "28258",
        "State": "AR",
        "lat": 35.014438,
        "lon": -90.742199
    },
    {
        "Cases": 19,
        "CasesPerMillion": 1691,
        "County": "Scott County",
        "FIPS": "5127",
        "Population": "11233",
        "State": "AR",
        "lat": 34.858869,
        "lon": -94.063641
    },
    {
        "Cases": 1102,
        "CasesPerMillion": 8764,
        "County": "Sebastian County",
        "FIPS": "5131",
        "Population": "125744",
        "State": "AR",
        "lat": 35.196981,
        "lon": -94.274989
    },
    {
        "Cases": 79,
        "CasesPerMillion": 4576,
        "County": "Sharp County",
        "FIPS": "5135",
        "Population": "17264",
        "State": "AR",
        "lat": 36.173399,
        "lon": -91.471069
    },
    {
        "Cases": 305,
        "CasesPerMillion": 7325,
        "County": "Union County",
        "FIPS": "5139",
        "Population": "41639",
        "State": "AR",
        "lat": 33.168219,
        "lon": -92.598145
    },
    {
        "Cases": 5059,
        "CasesPerMillion": 24913,
        "County": "Washington County",
        "FIPS": "5143",
        "Population": "203065",
        "State": "AR",
        "lat": 35.971209,
        "lon": -94.218417
    },
    {
        "Cases": 17,
        "CasesPerMillion": 2342,
        "County": "Woodruff County",
        "FIPS": "5147",
        "Population": "7260",
        "State": "AR",
        "lat": 35.189071,
        "lon": -91.244418
    },
    {
        "Cases": 21,
        "County": "Grand Princess Cruise Ship",
        "FIPS": "6000"
    },
    {
        "Cases": 2,
        "CasesPerMillion": 1702,
        "County": "Alpine County",
        "FIPS": "6003",
        "Population": "1175",
        "State": "CA",
        "lat": 38.61761,
        "lon": -119.798999
    },
    {
        "Cases": 522,
        "CasesPerMillion": 2373,
        "County": "Butte County",
        "FIPS": "6007",
        "Population": "220000",
        "State": "CA",
        "lat": 39.665959,
        "lon": -121.601919
    },
    {
        "Cases": 173,
        "CasesPerMillion": 8077,
        "County": "Colusa County",
        "FIPS": "6011",
        "Population": "21419",
        "State": "CA",
        "lat": 39.177739,
        "lon": -122.237563
    },
    {
        "Cases": 66,
        "CasesPerMillion": 2307,
        "County": "Del Norte County",
        "FIPS": "6015",
        "Population": "28610",
        "State": "CA",
        "lat": 41.749903,
        "lon": -123.980998
    },
    {
        "Cases": 9954,
        "CasesPerMillion": 10698,
        "County": "Fresno County",
        "FIPS": "6019",
        "Population": "930450",
        "State": "CA",
        "lat": 36.761006,
        "lon": -119.655019
    },
    {
        "Cases": 181,
        "CasesPerMillion": 1344,
        "County": "Humboldt County",
        "FIPS": "6023",
        "Population": "134623",
        "State": "CA",
        "lat": 40.706673,
        "lon": -123.925818
    },
    {
        "Cases": 37,
        "CasesPerMillion": 1995,
        "County": "Inyo County",
        "FIPS": "6027",
        "Population": "18546",
        "State": "CA",
        "lat": 36.561977,
        "lon": -117.403927
    },
    {
        "Cases": 3209,
        "CasesPerMillion": 20976,
        "County": "Kings County",
        "FIPS": "6031",
        "Population": "152982",
        "State": "CA",
        "lat": 36.072478,
        "lon": -119.81553
    },
    {
        "Cases": 36,
        "CasesPerMillion": 1032,
        "County": "Lassen County",
        "FIPS": "6035",
        "Population": "34895",
        "State": "CA",
        "lat": 40.721089,
        "lon": -120.629931
    },
    {
        "Cases": 1179,
        "CasesPerMillion": 7815,
        "County": "Madera County",
        "FIPS": "6039",
        "Population": "150865",
        "State": "CA",
        "lat": 37.210039,
        "lon": -119.749852
    },
    {
        "Cases": 36,
        "CasesPerMillion": 1972,
        "County": "Mariposa County",
        "FIPS": "6043",
        "Population": "18251",
        "State": "CA",
        "lat": 37.570034,
        "lon": -119.91286
    },
    {
        "Cases": 2403,
        "CasesPerMillion": 9394,
        "County": "Merced County",
        "FIPS": "6047",
        "Population": "255793",
        "State": "CA",
        "lat": 37.194806,
        "lon": -120.722802
    },
    {
        "Cases": 76,
        "CasesPerMillion": 5351,
        "County": "Mono County",
        "FIPS": "6051",
        "Population": "14202",
        "State": "CA",
        "lat": 37.915836,
        "lon": -118.875167
    },
    {
        "Cases": 583,
        "CasesPerMillion": 4272,
        "County": "Napa County",
        "FIPS": "6055",
        "Population": "136484",
        "State": "CA",
        "lat": 38.507351,
        "lon": -122.325995
    },
    {
        "Cases": 29011,
        "CasesPerMillion": 9637,
        "County": "Orange County",
        "FIPS": "6059",
        "Population": "3010232",
        "State": "CA",
        "lat": 33.675687,
        "lon": -117.777207
    },
    {
        "Cases": 23,
        "CasesPerMillion": 1150,
        "County": "Plumas County",
        "FIPS": "6063",
        "Population": "20007",
        "State": "CA",
        "lat": 39.99517,
        "lon": -120.829516
    },
    {
        "Cases": 6693,
        "CasesPerMillion": 4717,
        "County": "Sacramento County",
        "FIPS": "6067",
        "Population": "1418788",
        "State": "CA",
        "lat": 38.450011,
        "lon": -121.340441
    },
    {
        "Cases": 23566,
        "CasesPerMillion": 11579,
        "County": "San Bernardino County",
        "FIPS": "6071",
        "Population": "2035210",
        "State": "CA",
        "lat": 34.85722,
        "lon": -116.181197
    },
    {
        "Cases": 5116,
        "CasesPerMillion": 6353,
        "County": "San Francisco County",
        "FIPS": "6075",
        "Population": "805235",
        "State": "CA",
        "lat": 37.727239,
        "lon": -123.032229
    },
    {
        "Cases": 1213,
        "CasesPerMillion": 4499,
        "County": "San Luis Obispo County",
        "FIPS": "6079",
        "Population": "269637",
        "State": "CA",
        "lat": 35.385227,
        "lon": -120.44754
    },
    {
        "Cases": 4759,
        "CasesPerMillion": 11227,
        "County": "Santa Barbara County",
        "FIPS": "6083",
        "Population": "423895",
        "State": "CA",
        "lat": 34.537378,
        "lon": -120.038485
    },
    {
        "Cases": 772,
        "CasesPerMillion": 2942,
        "County": "Santa Cruz County",
        "FIPS": "6087",
        "Population": "262382",
        "State": "CA",
        "lat": 37.012488,
        "lon": -122.007205
    },
    {
        "Cases": 1,
        "CasesPerMillion": 309,
        "County": "Sierra County",
        "FIPS": "6091",
        "Population": "3240",
        "State": "CA",
        "lat": 39.576925,
        "lon": -120.521993
    },
    {
        "Cases": 2554,
        "CasesPerMillion": 6179,
        "County": "Solano County",
        "FIPS": "6095",
        "Population": "413344",
        "State": "CA",
        "lat": 38.267226,
        "lon": -121.939594
    },
    {
        "Cases": 6220,
        "CasesPerMillion": 12091,
        "County": "Stanislaus County",
        "FIPS": "6099",
        "Population": "514453",
        "State": "CA",
        "lat": 37.562384,
        "lon": -121.002656
    },
    {
        "Cases": 134,
        "CasesPerMillion": 2111,
        "County": "Tehama County",
        "FIPS": "6103",
        "Population": "63463",
        "State": "CA",
        "lat": 40.126156,
        "lon": -122.232276
    },
    {
        "Cases": 6683,
        "CasesPerMillion": 15114,
        "County": "Tulare County",
        "FIPS": "6107",
        "Population": "442179",
        "State": "CA",
        "lat": 36.230453,
        "lon": -118.780542
    },
    {
        "Cases": 4968,
        "CasesPerMillion": 6034,
        "County": "Ventura County",
        "FIPS": "6111",
        "Population": "823318",
        "State": "CA",
        "lat": 34.358742,
        "lon": -119.133143
    },
    {
        "Cases": 257,
        "CasesPerMillion": 3562,
        "County": "Yuba County",
        "FIPS": "6115",
        "Population": "72155",
        "State": "CA",
        "lat": 39.270026,
        "lon": -121.34428
    },
    {
        "Cases": 207,
        "CasesPerMillion": 13402,
        "County": "Alamosa County",
        "FIPS": "8003",
        "Population": "15445",
        "State": "CO",
        "lat": 37.568442,
        "lon": -105.788041
    },
    {
        "Cases": 18,
        "CasesPerMillion": 1490,
        "County": "Archuleta County",
        "FIPS": "8007",
        "Population": "12084",
        "State": "CO",
        "lat": 37.202395,
        "lon": -107.050863
    },
    {
        "Cases": 5,
        "CasesPerMillion": 769,
        "County": "Bent County",
        "FIPS": "8011",
        "Population": "6499",
        "State": "CO",
        "lat": 37.931891,
        "lon": -103.077584
    },
    {
        "Cases": 358,
        "CasesPerMillion": 6406,
        "County": "Broomfield County and City",
        "FIPS": "8014",
        "Population": "55889",
        "State": "CO",
        "lat": 39.953383,
        "lon": -105.052125
    },
    {
        "Cases": 7,
        "CasesPerMillion": 3813,
        "County": "Cheyenne County",
        "FIPS": "8017",
        "Population": "1836",
        "State": "CO",
        "lat": 38.835387,
        "lon": -102.604585
    },
    {
        "Cases": 20,
        "CasesPerMillion": 2422,
        "County": "Conejos County",
        "FIPS": "8021",
        "Population": "8256",
        "State": "CO",
        "lat": 37.213407,
        "lon": -106.176447
    },
    {
        "Cases": 72,
        "CasesPerMillion": 12365,
        "County": "Crowley County",
        "FIPS": "8025",
        "Population": "5823",
        "State": "CO",
        "lat": 38.321956,
        "lon": -103.787562
    },
    {
        "Cases": 86,
        "CasesPerMillion": 2778,
        "County": "Delta County",
        "FIPS": "8029",
        "Population": "30952",
        "State": "CO",
        "lat": 38.861756,
        "lon": -107.864757
    },
    {
        "Cases": 2,
        "CasesPerMillion": 969,
        "County": "Dolores County",
        "FIPS": "8033",
        "Population": "2064",
        "State": "CO",
        "lat": 37.747602,
        "lon": -108.530383
    },
    {
        "Cases": 831,
        "CasesPerMillion": 15920,
        "County": "Eagle County",
        "FIPS": "8037",
        "Population": "52197",
        "State": "CO",
        "lat": 39.630638,
        "lon": -106.692944
    },
    {
        "Cases": 3477,
        "CasesPerMillion": 5588,
        "County": "El Paso County",
        "FIPS": "8041",
        "Population": "622263",
        "State": "CO",
        "lat": 38.827383,
        "lon": -104.527472
    },
    {
        "Cases": 505,
        "CasesPerMillion": 8956,
        "County": "Garfield County",
        "FIPS": "8045",
        "Population": "56389",
        "State": "CO",
        "lat": 39.599352,
        "lon": -107.90978
    },
    {
        "Cases": 35,
        "CasesPerMillion": 2358,
        "County": "Grand County",
        "FIPS": "8049",
        "Population": "14843",
        "State": "CO",
        "lat": 40.123289,
        "lon": -106.095876
    },
    {
        "Cases": 3,
        "CasesPerMillion": 3559,
        "County": "Hinsdale County",
        "FIPS": "8053",
        "Population": "843",
        "State": "CO",
        "lat": 37.811625,
        "lon": -107.383405
    },
    {
        "Cases": 8,
        "CasesPerMillion": 5739,
        "County": "Jackson County",
        "FIPS": "8057",
        "Population": "1394",
        "State": "CO",
        "lat": 40.663432,
        "lon": -106.329248
    },
    {
        "Cases": 0,
        "CasesPerMillion": 0,
        "County": "Kiowa County",
        "FIPS": "8061",
        "Population": "1398",
        "State": "CO",
        "lat": 38.388466,
        "lon": -102.75621
    },
    {
        "Cases": 60,
        "CasesPerMillion": 8208,
        "County": "Lake County",
        "FIPS": "8065",
        "Population": "7310",
        "State": "CO",
        "lat": 39.204316,
        "lon": -106.349696
    },
    {
        "Cases": 1055,
        "CasesPerMillion": 3521,
        "County": "Larimer County",
        "FIPS": "8069",
        "Population": "299630",
        "State": "CO",
        "lat": 40.663091,
        "lon": -105.482131
    },
    {
        "Cases": 6,
        "CasesPerMillion": 1097,
        "County": "Lincoln County",
        "FIPS": "8073",
        "Population": "5467",
        "State": "CO",
        "lat": 38.99374,
        "lon": -103.507555
    },
    {
        "Cases": 180,
        "CasesPerMillion": 1227,
        "County": "Mesa County",
        "FIPS": "8077",
        "Population": "146723",
        "State": "CO",
        "lat": 39.019492,
        "lon": -108.461837
    },
    {
        "Cases": 18,
        "CasesPerMillion": 1305,
        "County": "Moffat County",
        "FIPS": "8081",
        "Population": "13795",
        "State": "CO",
        "lat": 40.573984,
        "lon": -108.204521
    },
    {
        "Cases": 232,
        "CasesPerMillion": 5621,
        "County": "Montrose County",
        "FIPS": "8085",
        "Population": "41276",
        "State": "CO",
        "lat": 38.413427,
        "lon": -108.263042
    },
    {
        "Cases": 24,
        "CasesPerMillion": 1274,
        "County": "Otero County",
        "FIPS": "8089",
        "Population": "18831",
        "State": "CO",
        "lat": 37.88417,
        "lon": -103.72126
    },
    {
        "Cases": 33,
        "CasesPerMillion": 2036,
        "County": "Park County",
        "FIPS": "8093",
        "Population": "16206",
        "State": "CO",
        "lat": 39.118914,
        "lon": -105.717648
    },
    {
        "Cases": 150,
        "CasesPerMillion": 8747,
        "County": "Pitkin County",
        "FIPS": "8097",
        "Population": "17148",
        "State": "CO",
        "lat": 39.217533,
        "lon": -106.915943
    },
    {
        "Cases": 482,
        "CasesPerMillion": 3030,
        "County": "Pueblo County",
        "FIPS": "8101",
        "Population": "159063",
        "State": "CO",
        "lat": 38.170658,
        "lon": -104.489893
    },
    {
        "Cases": 82,
        "CasesPerMillion": 6844,
        "County": "Rio Grande County",
        "FIPS": "8105",
        "Population": "11982",
        "State": "CO",
        "lat": 37.485763,
        "lon": -106.453214
    },
    {
        "Cases": 105,
        "CasesPerMillion": 17191,
        "County": "Saguache County",
        "FIPS": "8109",
        "Population": "6108",
        "State": "CO",
        "lat": 38.033952,
        "lon": -106.246675
    },
    {
        "Cases": 64,
        "CasesPerMillion": 8697,
        "County": "San Miguel County",
        "FIPS": "8113",
        "Population": "7359",
        "State": "CO",
        "lat": 38.009374,
        "lon": -108.427326
    },
    {
        "Cases": 304,
        "CasesPerMillion": 10859,
        "County": "Summit County",
        "FIPS": "8117",
        "Population": "27994",
        "State": "CO",
        "lat": 39.621023,
        "lon": -106.137555
    },
    {
        "Cases": 46,
        "CasesPerMillion": 9555,
        "County": "Washington County",
        "FIPS": "8121",
        "Population": "4814",
        "State": "CO",
        "lat": 39.965413,
        "lon": -103.209605
    },
    {
        "Cases": 55,
        "CasesPerMillion": 5476,
        "County": "Yuma County",
        "FIPS": "8125",
        "Population": "10043",
        "State": "CO",
        "lat": 40.000631,
        "lon": -102.422649
    },
    {
        "Cases": 12046,
        "CasesPerMillion": 13474,
        "County": "Hartford County",
        "FIPS": "9003",
        "Population": "894014",
        "State": "CT",
        "lat": 41.806053,
        "lon": -72.732916
    },
    {
        "Cases": 1357,
        "CasesPerMillion": 8191,
        "County": "Middlesex County",
        "FIPS": "9007",
        "Population": "165676",
        "State": "CT",
        "lat": 41.434525,
        "lon": -72.524227
    },
    {
        "Cases": 1347,
        "CasesPerMillion": 4915,
        "County": "New London County",
        "FIPS": "9011",
        "Population": "274055",
        "State": "CT",
        "lat": 41.47863,
        "lon": -72.103452
    },
    {
        "Cases": 651,
        "CasesPerMillion": 5497,
        "County": "Windham County",
        "FIPS": "9015",
        "Population": "118428",
        "State": "CT",
        "lat": 41.824999,
        "lon": -71.990702
    },
    {
        "Cases": 6028,
        "CasesPerMillion": 11194,
        "County": "New Castle County",
        "FIPS": "10003",
        "Population": "538479",
        "State": "DE",
        "lat": 39.575915,
        "lon": -75.644132
    },
    {
        "Cases": 11261,
        "CasesPerMillion": 18715,
        "County": "Washington",
        "FIPS": "11001",
        "Population": "601723",
        "State": "DC",
        "lat": 38.904149,
        "lon": -77.017094
    },
    {
        "Cases": 220,
        "CasesPerMillion": 8114,
        "County": "Baker County",
        "FIPS": "12003",
        "Population": "27115",
        "State": "FL",
        "lat": 30.324442,
        "lon": -82.302284
    },
    {
        "Cases": 185,
        "CasesPerMillion": 6487,
        "County": "Bradford County",
        "FIPS": "12007",
        "Population": "28520",
        "State": "FL",
        "lat": 29.946934,
        "lon": -82.166796
    },
    {
        "Cases": 38131,
        "CasesPerMillion": 21813,
        "County": "Broward County",
        "FIPS": "12011",
        "Population": "1748066",
        "State": "FL",
        "lat": 26.19352,
        "lon": -80.476658
    },
    {
        "Cases": 1382,
        "CasesPerMillion": 8639,
        "County": "Charlotte County",
        "FIPS": "12015",
        "Population": "159978",
        "State": "FL",
        "lat": 26.868826,
        "lon": -81.940858
    },
    {
        "Cases": 1980,
        "CasesPerMillion": 10374,
        "County": "Clay County",
        "FIPS": "12019",
        "Population": "190865",
        "State": "FL",
        "lat": 29.987116,
        "lon": -81.858147
    },
    {
        "Cases": 1181,
        "CasesPerMillion": 17488,
        "County": "Columbia County",
        "FIPS": "12023",
        "Population": "67531",
        "State": "FL",
        "lat": 30.221305,
        "lon": -82.623127
    },
    {
        "Cases": 160,
        "CasesPerMillion": 9743,
        "County": "Dixie County",
        "FIPS": "12029",
        "Population": "16422",
        "State": "FL",
        "lat": 29.580899,
        "lon": -83.195666
    },
    {
        "Cases": 5557,
        "CasesPerMillion": 18672,
        "County": "Escambia County",
        "FIPS": "12033",
        "Population": "297619",
        "State": "FL",
        "lat": 30.611664,
        "lon": -87.33904
    },
    {
        "Cases": 52,
        "CasesPerMillion": 4503,
        "County": "Franklin County",
        "FIPS": "12037",
        "Population": "11549",
        "State": "FL",
        "lat": 29.810176,
        "lon": -84.799174
    },
    {
        "Cases": 201,
        "CasesPerMillion": 11866,
        "County": "Gilchrist County",
        "FIPS": "12041",
        "Population": "16939",
        "State": "FL",
        "lat": 29.723456,
        "lon": -82.795801
    },
    {
        "Cases": 135,
        "CasesPerMillion": 8510,
        "County": "Gulf County",
        "FIPS": "12045",
        "Population": "15863",
        "State": "FL",
        "lat": 29.907257,
        "lon": -85.256537
    },
    {
        "Cases": 694,
        "CasesPerMillion": 25026,
        "County": "Hardee County",
        "FIPS": "12049",
        "Population": "27731",
        "State": "FL",
        "lat": 27.492846,
        "lon": -81.82158
    },
    {
        "Cases": 1110,
        "CasesPerMillion": 6424,
        "County": "Hernando County",
        "FIPS": "12053",
        "Population": "172778",
        "State": "FL",
        "lat": 28.567911,
        "lon": -82.464835
    },
    {
        "Cases": 23103,
        "CasesPerMillion": 18795,
        "County": "Hillsborough County",
        "FIPS": "12057",
        "Population": "1229226",
        "State": "FL",
        "lat": 27.90659,
        "lon": -82.349568
    },
    {
        "Cases": 1504,
        "CasesPerMillion": 10896,
        "County": "Indian River County",
        "FIPS": "12061",
        "Population": "138028",
        "State": "FL",
        "lat": 27.700638,
        "lon": -80.574803
    },
    {
        "Cases": 110,
        "CasesPerMillion": 7452,
        "County": "Jefferson County",
        "FIPS": "12065",
        "Population": "14761",
        "State": "FL",
        "lat": 30.424558,
        "lon": -83.890859
    },
    {
        "Cases": 3206,
        "CasesPerMillion": 10793,
        "County": "Lake County",
        "FIPS": "12069",
        "Population": "297052",
        "State": "FL",
        "lat": 28.764113,
        "lon": -81.712282
    },
    {
        "Cases": 2884,
        "CasesPerMillion": 10469,
        "County": "Leon County",
        "FIPS": "12073",
        "Population": "275487",
        "State": "FL",
        "lat": 30.45931,
        "lon": -84.2778
    },
    {
        "Cases": 293,
        "CasesPerMillion": 35027,
        "County": "Liberty County",
        "FIPS": "12077",
        "Population": "8365",
        "State": "FL",
        "lat": 30.259849,
        "lon": -84.868581
    },
    {
        "Cases": 6280,
        "CasesPerMillion": 19453,
        "County": "Manatee County",
        "FIPS": "12081",
        "Population": "322833",
        "State": "FL",
        "lat": 27.481386,
        "lon": -82.365784
    },
    {
        "Cases": 3058,
        "CasesPerMillion": 20900,
        "County": "Martin County",
        "FIPS": "12085",
        "Population": "146318",
        "State": "FL",
        "lat": 27.079954,
        "lon": -80.398211
    },
    {
        "Cases": 810,
        "CasesPerMillion": 11082,
        "County": "Monroe County",
        "FIPS": "12087",
        "Population": "73090",
        "State": "FL",
        "lat": 25.601043,
        "lon": -81.206777
    },
    {
        "Cases": 1753,
        "CasesPerMillion": 9695,
        "County": "Okaloosa County",
        "FIPS": "12091",
        "Population": "180822",
        "State": "FL",
        "lat": 30.665858,
        "lon": -86.594194
    },
    {
        "Cases": 22518,
        "CasesPerMillion": 19650,
        "County": "Orange County",
        "FIPS": "12095",
        "Population": "1145956",
        "State": "FL",
        "lat": 28.514435,
        "lon": -81.323295
    },
    {
        "Cases": 25045,
        "CasesPerMillion": 18972,
        "County": "Palm Beach County",
        "FIPS": "12099",
        "Population": "1320134",
        "State": "FL",
        "lat": 26.645763,
        "lon": -80.448673
    },
    {
        "Cases": 13019,
        "CasesPerMillion": 14204,
        "County": "Pinellas County",
        "FIPS": "12103",
        "Population": "916542",
        "State": "FL",
        "lat": 27.903122,
        "lon": -82.739518
    },
    {
        "Cases": 926,
        "CasesPerMillion": 12452,
        "County": "Putnam County",
        "FIPS": "12107",
        "Population": "74364",
        "State": "FL",
        "lat": 29.606006,
        "lon": -81.740894
    },
    {
        "Cases": 3500,
        "CasesPerMillion": 12599,
        "County": "St. Lucie County",
        "FIPS": "12111",
        "Population": "277789",
        "State": "FL",
        "lat": 27.380775,
        "lon": -80.443364
    },
    {
        "Cases": 4065,
        "CasesPerMillion": 10713,
        "County": "Sarasota County",
        "FIPS": "12115",
        "Population": "379448",
        "State": "FL",
        "lat": 27.184386,
        "lon": -82.365835
    },
    {
        "Cases": 787,
        "CasesPerMillion": 8424,
        "County": "Sumter County",
        "FIPS": "12119",
        "Population": "93420",
        "State": "FL",
        "lat": 28.714294,
        "lon": -82.074715
    },
    {
        "Cases": 200,
        "CasesPerMillion": 8861,
        "County": "Taylor County",
        "FIPS": "12123",
        "Population": "22570",
        "State": "FL",
        "lat": 30.016943,
        "lon": -83.616417
    },
    {
        "Cases": 4959,
        "CasesPerMillion": 10026,
        "County": "Volusia County",
        "FIPS": "12127",
        "Population": "494593",
        "State": "FL",
        "lat": 29.057617,
        "lon": -81.161813
    },
    {
        "Cases": 766,
        "CasesPerMillion": 13916,
        "County": "Walton County",
        "FIPS": "12131",
        "Population": "55043",
        "State": "FL",
        "lat": 30.631211,
        "lon": -86.176614
    },
    {
        "Cases": 411,
        "CasesPerMillion": 22538,
        "County": "Appling County",
        "FIPS": "13001",
        "Population": "18236",
        "State": "GA",
        "lat": 31.739712,
        "lon": -82.290103
    },
    {
        "Cases": 339,
        "CasesPerMillion": 30552,
        "County": "Bacon County",
        "FIPS": "13005",
        "Population": "11096",
        "State": "GA",
        "lat": 31.563327,
        "lon": -82.387859
    },
    {
        "Cases": 730,
        "CasesPerMillion": 15967,
        "County": "Baldwin County",
        "FIPS": "13009",
        "Population": "45720",
        "State": "GA",
        "lat": 33.059532,
        "lon": -83.255362
    },
    {
        "Cases": 745,
        "CasesPerMillion": 10740,
        "County": "Barrow County",
        "FIPS": "13013",
        "Population": "69367",
        "State": "GA",
        "lat": 33.992009,
        "lon": -83.712303
    },
    {
        "Cases": 265,
        "CasesPerMillion": 15028,
        "County": "Ben Hill County",
        "FIPS": "13017",
        "Population": "17634",
        "State": "GA",
        "lat": 31.740776,
        "lon": -83.14719
    },
    {
        "Cases": 2152,
        "CasesPerMillion": 13835,
        "County": "Bibb County",
        "FIPS": "13021",
        "Population": "155547",
        "State": "GA",
        "lat": 32.808844,
        "lon": -83.694193
    },
    {
        "Cases": 169,
        "CasesPerMillion": 9179,
        "County": "Brantley County",
        "FIPS": "13025",
        "Population": "18411",
        "State": "GA",
        "lat": 31.197334,
        "lon": -81.982978
    },
    {
        "Cases": 342,
        "CasesPerMillion": 11312,
        "County": "Bryan County",
        "FIPS": "13029",
        "Population": "30233",
        "State": "GA",
        "lat": 32.017969,
        "lon": -81.438543
    },
    {
        "Cases": 243,
        "CasesPerMillion": 10422,
        "County": "Burke County",
        "FIPS": "13033",
        "Population": "23316",
        "State": "GA",
        "lat": 33.063737,
        "lon": -82.00389
    },
    {
        "Cases": 175,
        "CasesPerMillion": 26143,
        "County": "Calhoun County",
        "FIPS": "13037",
        "Population": "6694",
        "State": "GA",
        "lat": 31.521279,
        "lon": -84.62629
    },
    {
        "Cases": 125,
        "CasesPerMillion": 11366,
        "County": "Candler County",
        "FIPS": "13043",
        "Population": "10998",
        "State": "GA",
        "lat": 32.403986,
        "lon": -82.071446
    },
    {
        "Cases": 388,
        "CasesPerMillion": 6068,
        "County": "Catoosa County",
        "FIPS": "13047",
        "Population": "63942",
        "State": "GA",
        "lat": 34.899393,
        "lon": -85.137353
    },
    {
        "Cases": 3264,
        "CasesPerMillion": 12311,
        "County": "Chatham County",
        "FIPS": "13051",
        "Population": "265128",
        "State": "GA",
        "lat": 31.974756,
        "lon": -81.091768
    },
    {
        "Cases": 93,
        "CasesPerMillion": 3575,
        "County": "Chattooga County",
        "FIPS": "13055",
        "Population": "26015",
        "State": "GA",
        "lat": 34.474179,
        "lon": -85.345289
    },
    {
        "Cases": 1205,
        "CasesPerMillion": 10324,
        "County": "Clarke County",
        "FIPS": "13059",
        "Population": "116714",
        "State": "GA",
        "lat": 33.952234,
        "lon": -83.36713
    },
    {
        "Cases": 3331,
        "CasesPerMillion": 12840,
        "County": "Clayton County",
        "FIPS": "13063",
        "Population": "259424",
        "State": "GA",
        "lat": 33.552242,
        "lon": -84.412977
    },
    {
        "Cases": 8223,
        "CasesPerMillion": 11951,
        "County": "Cobb County",
        "FIPS": "13067",
        "Population": "688078",
        "State": "GA",
        "lat": 33.93994,
        "lon": -84.574166
    },
    {
        "Cases": 1339,
        "CasesPerMillion": 29430,
        "County": "Colquitt County",
        "FIPS": "13071",
        "Population": "45498",
        "State": "GA",
        "lat": 31.189758,
        "lon": -83.769741
    },
    {
        "Cases": 284,
        "CasesPerMillion": 16500,
        "County": "Cook County",
        "FIPS": "13075",
        "Population": "17212",
        "State": "GA",
        "lat": 31.152935,
        "lon": -83.429552
    },
    {
        "Cases": 67,
        "CasesPerMillion": 5305,
        "County": "Crawford County",
        "FIPS": "13079",
        "Population": "12630",
        "State": "GA",
        "lat": 32.709446,
        "lon": -83.979182
    },
    {
        "Cases": 87,
        "CasesPerMillion": 5231,
        "County": "Dade County",
        "FIPS": "13083",
        "Population": "16633",
        "State": "GA",
        "lat": 34.852424,
        "lon": -85.506201
    },
    {
        "Cases": 365,
        "CasesPerMillion": 13110,
        "County": "Decatur County",
        "FIPS": "13087",
        "Population": "27842",
        "State": "GA",
        "lat": 30.877961,
        "lon": -84.577744
    },
    {
        "Cases": 165,
        "CasesPerMillion": 7570,
        "County": "Dodge County",
        "FIPS": "13091",
        "Population": "21796",
        "State": "GA",
        "lat": 32.160656,
        "lon": -83.156818
    },
    {
        "Cases": 2290,
        "CasesPerMillion": 24216,
        "County": "Dougherty County",
        "FIPS": "13095",
        "Population": "94565",
        "State": "GA",
        "lat": 31.535068,
        "lon": -84.214444
    },
    {
        "Cases": 327,
        "CasesPerMillion": 29706,
        "County": "Early County",
        "FIPS": "13099",
        "Population": "11008",
        "State": "GA",
        "lat": 31.324191,
        "lon": -84.906723
    },
    {
        "Cases": 393,
        "CasesPerMillion": 7522,
        "County": "Effingham County",
        "FIPS": "13103",
        "Population": "52250",
        "State": "GA",
        "lat": 32.361711,
        "lon": -81.343337
    },
    {
        "Cases": 256,
        "CasesPerMillion": 11328,
        "County": "Emanuel County",
        "FIPS": "13107",
        "Population": "22598",
        "State": "GA",
        "lat": 32.5911,
        "lon": -82.299763
    },
    {
        "Cases": 173,
        "CasesPerMillion": 7305,
        "County": "Fannin County",
        "FIPS": "13111",
        "Population": "23682",
        "State": "GA",
        "lat": 34.863837,
        "lon": -84.319287
    },
    {
        "Cases": 853,
        "CasesPerMillion": 8856,
        "County": "Floyd County",
        "FIPS": "13115",
        "Population": "96317",
        "State": "GA",
        "lat": 34.263677,
        "lon": -85.21373
    },
    {
        "Cases": 289,
        "CasesPerMillion": 13086,
        "County": "Franklin County",
        "FIPS": "13119",
        "Population": "22084",
        "State": "GA",
        "lat": 34.375155,
        "lon": -83.227291
    },
    {
        "Cases": 347,
        "CasesPerMillion": 12265,
        "County": "Gilmer County",
        "FIPS": "13123",
        "Population": "28292",
        "State": "GA",
        "lat": 34.690541,
        "lon": -84.453984
    },
    {
        "Cases": 1801,
        "CasesPerMillion": 22618,
        "County": "Glynn County",
        "FIPS": "13127",
        "Population": "79626",
        "State": "GA",
        "lat": 31.212747,
        "lon": -81.496517
    },
    {
        "Cases": 281,
        "CasesPerMillion": 11235,
        "County": "Grady County",
        "FIPS": "13131",
        "Population": "25011",
        "State": "GA",
        "lat": 30.875863,
        "lon": -84.244772
    },
    {
        "Cases": 13234,
        "CasesPerMillion": 16433,
        "County": "Gwinnett County",
        "FIPS": "13135",
        "Population": "805321",
        "State": "GA",
        "lat": 33.959101,
        "lon": -84.022938
    },
    {
        "Cases": 4358,
        "CasesPerMillion": 24254,
        "County": "Hall County",
        "FIPS": "13139",
        "Population": "179684",
        "State": "GA",
        "lat": 34.317588,
        "lon": -83.818497
    },
    {
        "Cases": 132,
        "CasesPerMillion": 4587,
        "County": "Haralson County",
        "FIPS": "13143",
        "Population": "28780",
        "State": "GA",
        "lat": 33.795165,
        "lon": -85.220062
    },
    {
        "Cases": 143,
        "CasesPerMillion": 5672,
        "County": "Hart County",
        "FIPS": "13147",
        "Population": "25213",
        "State": "GA",
        "lat": 34.348733,
        "lon": -82.96329
    },
    {
        "Cases": 2098,
        "CasesPerMillion": 10288,
        "County": "Henry County",
        "FIPS": "13151",
        "Population": "203922",
        "State": "GA",
        "lat": 33.452881,
        "lon": -84.15444
    },
    {
        "Cases": 109,
        "CasesPerMillion": 11428,
        "County": "Irwin County",
        "FIPS": "13155",
        "Population": "9538",
        "State": "GA",
        "lat": 31.604306,
        "lon": -83.277037
    },
    {
        "Cases": 99,
        "CasesPerMillion": 7122,
        "County": "Jasper County",
        "FIPS": "13159",
        "Population": "13900",
        "State": "GA",
        "lat": 33.314905,
        "lon": -83.687892
    },
    {
        "Cases": 276,
        "CasesPerMillion": 16302,
        "County": "Jefferson County",
        "FIPS": "13163",
        "Population": "16930",
        "State": "GA",
        "lat": 33.051874,
        "lon": -82.41905
    },
    {
        "Cases": 150,
        "CasesPerMillion": 15030,
        "County": "Johnson County",
        "FIPS": "13167",
        "Population": "9980",
        "State": "GA",
        "lat": 32.689831,
        "lon": -82.661354
    },
    {
        "Cases": 164,
        "CasesPerMillion": 8953,
        "County": "Lamar County",
        "FIPS": "13171",
        "Population": "18317",
        "State": "GA",
        "lat": 33.07446,
        "lon": -84.146721
    },
    {
        "Cases": 463,
        "CasesPerMillion": 9559,
        "County": "Laurens County",
        "FIPS": "13175",
        "Population": "48434",
        "State": "GA",
        "lat": 32.39322,
        "lon": -82.926317
    },
    {
        "Cases": 346,
        "CasesPerMillion": 5453,
        "County": "Liberty County",
        "FIPS": "13179",
        "Population": "63453",
        "State": "GA",
        "lat": 31.807245,
        "lon": -81.457969
    },
    {
        "Cases": 81,
        "CasesPerMillion": 5600,
        "County": "Long County",
        "FIPS": "13183",
        "Population": "14464",
        "State": "GA",
        "lat": 31.749563,
        "lon": -81.74287
    },
    {
        "Cases": 203,
        "CasesPerMillion": 6774,
        "County": "Lumpkin County",
        "FIPS": "13187",
        "Population": "29966",
        "State": "GA",
        "lat": 34.568149,
        "lon": -83.998828
    },
    {
        "Cases": 101,
        "CasesPerMillion": 7047,
        "County": "McIntosh County",
        "FIPS": "13191",
        "Population": "14333",
        "State": "GA",
        "lat": 31.482978,
        "lon": -81.370199
    },
    {
        "Cases": 217,
        "CasesPerMillion": 7717,
        "County": "Madison County",
        "FIPS": "13195",
        "Population": "28120",
        "State": "GA",
        "lat": 34.128486,
        "lon": -83.203637
    },
    {
        "Cases": 280,
        "CasesPerMillion": 12732,
        "County": "Meriwether County",
        "FIPS": "13199",
        "Population": "21992",
        "State": "GA",
        "lat": 33.03022,
        "lon": -84.663279
    },
    {
        "Cases": 518,
        "CasesPerMillion": 22044,
        "County": "Mitchell County",
        "FIPS": "13205",
        "Population": "23498",
        "State": "GA",
        "lat": 31.22894,
        "lon": -84.192407
    },
    {
        "Cases": 72,
        "CasesPerMillion": 7892,
        "County": "Montgomery County",
        "FIPS": "13209",
        "Population": "9123",
        "State": "GA",
        "lat": 32.172108,
        "lon": -82.533349
    },
    {
        "Cases": 371,
        "CasesPerMillion": 9362,
        "County": "Murray County",
        "FIPS": "13213",
        "Population": "39628",
        "State": "GA",
        "lat": 34.797097,
        "lon": -84.73799
    },
    {
        "Cases": 1144,
        "CasesPerMillion": 11445,
        "County": "Newton County",
        "FIPS": "13217",
        "Population": "99958",
        "State": "GA",
        "lat": 33.544046,
        "lon": -83.855189
    },
    {
        "Cases": 137,
        "CasesPerMillion": 9195,
        "County": "Oglethorpe County",
        "FIPS": "13221",
        "Population": "14899",
        "State": "GA",
        "lat": 33.866806,
        "lon": -83.074081
    },
    {
        "Cases": 193,
        "CasesPerMillion": 6969,
        "County": "Peach County",
        "FIPS": "13225",
        "Population": "27695",
        "State": "GA",
        "lat": 32.571324,
        "lon": -83.831978
    },
    {
        "Cases": 309,
        "CasesPerMillion": 16473,
        "County": "Pierce County",
        "FIPS": "13229",
        "Population": "18758",
        "State": "GA",
        "lat": 31.353988,
        "lon": -82.210427
    },
    {
        "Cases": 410,
        "CasesPerMillion": 9885,
        "County": "Polk County",
        "FIPS": "13233",
        "Population": "41475",
        "State": "GA",
        "lat": 33.995961,
        "lon": -85.186826
    },
    {
        "Cases": 265,
        "CasesPerMillion": 12489,
        "County": "Putnam County",
        "FIPS": "13237",
        "Population": "21218",
        "State": "GA",
        "lat": 33.321061,
        "lon": -83.37179
    },
    {
        "Cases": 116,
        "CasesPerMillion": 7127,
        "County": "Rabun County",
        "FIPS": "13241",
        "Population": "16276",
        "State": "GA",
        "lat": 34.883026,
        "lon": -83.404735
    },
    {
        "Cases": 2156,
        "CasesPerMillion": 10750,
        "County": "Richmond County",
        "FIPS": "13245",
        "Population": "200549",
        "State": "GA",
        "lat": 33.361487,
        "lon": -82.074998
    },
    {
        "Cases": 31,
        "CasesPerMillion": 6188,
        "County": "Schley County",
        "FIPS": "13249",
        "Population": "5010",
        "State": "GA",
        "lat": 32.263441,
        "lon": -84.322724
    },
    {
        "Cases": 66,
        "CasesPerMillion": 7561,
        "County": "Seminole County",
        "FIPS": "13253",
        "Population": "8729",
        "State": "GA",
        "lat": 30.933894,
        "lon": -84.867592
    },
    {
        "Cases": 395,
        "CasesPerMillion": 15091,
        "County": "Stephens County",
        "FIPS": "13257",
        "Population": "26175",
        "State": "GA",
        "lat": 34.552914,
        "lon": -83.290216
    },
    {
        "Cases": 664,
        "CasesPerMillion": 20232,
        "County": "Sumter County",
        "FIPS": "13261",
        "Population": "32819",
        "State": "GA",
        "lat": 32.042203,
        "lon": -84.204283
    },
    {
        "Cases": 2,
        "CasesPerMillion": 1165,
        "County": "Taliaferro County",
        "FIPS": "13265",
        "Population": "1717",
        "State": "GA",
        "lat": 33.559314,
        "lon": -82.875208
    },
    {
        "Cases": 51,
        "CasesPerMillion": 5726,
        "County": "Taylor County",
        "FIPS": "13269",
        "Population": "8906",
        "State": "GA",
        "lat": 32.554667,
        "lon": -84.251426
    },
    {
        "Cases": 260,
        "CasesPerMillion": 27912,
        "County": "Terrell County",
        "FIPS": "13273",
        "Population": "9315",
        "State": "GA",
        "lat": 31.777191,
        "lon": -84.439446
    },
    {
        "Cases": 1101,
        "CasesPerMillion": 27444,
        "County": "Tift County",
        "FIPS": "13277",
        "Population": "40118",
        "State": "GA",
        "lat": 31.457003,
        "lon": -83.525931
    },
    {
        "Cases": 81,
        "CasesPerMillion": 7736,
        "County": "Towns County",
        "FIPS": "13281",
        "Population": "10471",
        "State": "GA",
        "lat": 34.90265,
        "lon": -83.732158
    },
    {
        "Cases": 1857,
        "CasesPerMillion": 27698,
        "County": "Troup County",
        "FIPS": "13285",
        "Population": "67044",
        "State": "GA",
        "lat": 33.034482,
        "lon": -85.02836
    },
    {
        "Cases": 52,
        "CasesPerMillion": 5763,
        "County": "Twiggs County",
        "FIPS": "13289",
        "Population": "9023",
        "State": "GA",
        "lat": 32.665847,
        "lon": -83.425879
    },
    {
        "Cases": 407,
        "CasesPerMillion": 14989,
        "County": "Upson County",
        "FIPS": "13293",
        "Population": "27153",
        "State": "GA",
        "lat": 32.881837,
        "lon": -84.292281
    },
    {
        "Cases": 631,
        "CasesPerMillion": 7533,
        "County": "Walton County",
        "FIPS": "13297",
        "Population": "83768",
        "State": "GA",
        "lat": 33.782649,
        "lon": -83.734215
    },
    {
        "Cases": 44,
        "CasesPerMillion": 7542,
        "County": "Warren County",
        "FIPS": "13301",
        "Population": "5834",
        "State": "GA",
        "lat": 33.419169,
        "lon": -82.688012
    },
    {
        "Cases": 292,
        "CasesPerMillion": 9701,
        "County": "Wayne County",
        "FIPS": "13305",
        "Population": "30099",
        "State": "GA",
        "lat": 31.547845,
        "lon": -81.912376
    },
    {
        "Cases": 75,
        "CasesPerMillion": 10106,
        "County": "Wheeler County",
        "FIPS": "13309",
        "Population": "7421",
        "State": "GA",
        "lat": 32.109276,
        "lon": -82.738701
    },
    {
        "Cases": 2179,
        "CasesPerMillion": 21238,
        "County": "Whitfield County",
        "FIPS": "13313",
        "Population": "102599",
        "State": "GA",
        "lat": 34.801726,
        "lon": -84.968541
    },
    {
        "Cases": 139,
        "CasesPerMillion": 13122,
        "County": "Wilkes County",
        "FIPS": "13317",
        "Population": "10593",
        "State": "GA",
        "lat": 33.77904,
        "lon": -82.747922
    },
    {
        "Cases": 372,
        "CasesPerMillion": 17159,
        "County": "Worth County",
        "FIPS": "13321",
        "Population": "21679",
        "State": "GA",
        "lat": 31.551773,
        "lon": -83.84996
    },
    {
        "Cases": 1040,
        "CasesPerMillion": 1091,
        "County": "Honolulu County",
        "FIPS": "15003",
        "Population": "953207",
        "State": "HI",
        "lat": 21.461364,
        "lon": -158.201976
    },
    {
        "Cases": 43,
        "CasesPerMillion": 641,
        "County": "Kauai County",
        "FIPS": "15007",
        "Population": "67091",
        "State": "HI",
        "lat": 22.012038,
        "lon": -159.705965
    },
    {
        "Cases": 5723,
        "CasesPerMillion": 14586,
        "County": "Ada County",
        "FIPS": "16001",
        "Population": "392365",
        "State": "ID",
        "lat": 43.447861,
        "lon": -116.244456
    },
    {
        "Cases": 186,
        "CasesPerMillion": 2245,
        "County": "Bannock County",
        "FIPS": "16005",
        "Population": "82839",
        "State": "ID",
        "lat": 42.692939,
        "lon": -112.228986
    },
    {
        "Cases": 35,
        "CasesPerMillion": 3770,
        "County": "Benewah County",
        "FIPS": "16009",
        "Population": "9285",
        "State": "ID",
        "lat": 47.218451,
        "lon": -116.633541
    },
    {
        "Cases": 556,
        "CasesPerMillion": 26010,
        "County": "Blaine County",
        "FIPS": "16013",
        "Population": "21376",
        "State": "ID",
        "lat": 43.394482,
        "lon": -113.95529
    },
    {
        "Cases": 90,
        "CasesPerMillion": 2202,
        "County": "Bonner County",
        "FIPS": "16017",
        "Population": "40877",
        "State": "ID",
        "lat": 48.312512,
        "lon": -116.59694
    },
    {
        "Cases": 10,
        "CasesPerMillion": 911,
        "County": "Boundary County",
        "FIPS": "16021",
        "Population": "10972",
        "State": "ID",
        "lat": 48.773065,
        "lon": -116.524619
    },
    {
        "Cases": 1,
        "CasesPerMillion": 895,
        "County": "Camas County",
        "FIPS": "16025",
        "Population": "1117",
        "State": "ID",
        "lat": 43.463396,
        "lon": -114.804427
    },
    {
        "Cases": 21,
        "CasesPerMillion": 3016,
        "County": "Caribou County",
        "FIPS": "16029",
        "Population": "6963",
        "State": "ID",
        "lat": 42.786273,
        "lon": -111.544172
    },
    {
        "Cases": 0,
        "CasesPerMillion": 0,
        "County": "Clark County",
        "FIPS": "16033",
        "Population": "982",
        "State": "ID",
        "lat": 44.286251,
        "lon": -112.36112
    },
    {
        "Cases": 6,
        "CasesPerMillion": 1374,
        "County": "Custer County",
        "FIPS": "16037",
        "Population": "4368",
        "State": "ID",
        "lat": 44.273341,
        "lon": -114.252251
    },
    {
        "Cases": 35,
        "CasesPerMillion": 2737,
        "County": "Franklin County",
        "FIPS": "16041",
        "Population": "12786",
        "State": "ID",
        "lat": 42.173589,
        "lon": -111.822955
    },
    {
        "Cases": 94,
        "CasesPerMillion": 5622,
        "County": "Gem County",
        "FIPS": "16045",
        "Population": "16719",
        "State": "ID",
        "lat": 44.061473,
        "lon": -116.398784
    },
    {
        "Cases": 16,
        "CasesPerMillion": 984,
        "County": "Idaho County",
        "FIPS": "16049",
        "Population": "16267",
        "State": "ID",
        "lat": 45.849237,
        "lon": -115.467376
    },
    {
        "Cases": 349,
        "CasesPerMillion": 15598,
        "County": "Jerome County",
        "FIPS": "16053",
        "Population": "22374",
        "State": "ID",
        "lat": 42.691172,
        "lon": -114.263009
    },
    {
        "Cases": 40,
        "CasesPerMillion": 1074,
        "County": "Latah County",
        "FIPS": "16057",
        "Population": "37244",
        "State": "ID",
        "lat": 46.81892,
        "lon": -116.730974
    },
    {
        "Cases": 0,
        "CasesPerMillion": 0,
        "County": "Lewis County",
        "FIPS": "16061",
        "Population": "3821",
        "State": "ID",
        "lat": 46.236328,
        "lon": -116.42376
    },
    {
        "Cases": 94,
        "CasesPerMillion": 2504,
        "County": "Madison County",
        "FIPS": "16065",
        "Population": "37536",
        "State": "ID",
        "lat": 43.789709,
        "lon": -111.65655
    },
    {
        "Cases": 116,
        "CasesPerMillion": 2954,
        "County": "Nez Perce County",
        "FIPS": "16069",
        "Population": "39265",
        "State": "ID",
        "lat": 46.333766,
        "lon": -116.760903
    },
    {
        "Cases": 133,
        "CasesPerMillion": 11539,
        "County": "Owyhee County",
        "FIPS": "16073",
        "Population": "11526",
        "State": "ID",
        "lat": 42.593063,
        "lon": -116.142655
    },
    {
        "Cases": 22,
        "CasesPerMillion": 2814,
        "County": "Power County",
        "FIPS": "16077",
        "Population": "7817",
        "State": "ID",
        "lat": 42.694126,
        "lon": -112.844407
    },
    {
        "Cases": 42,
        "CasesPerMillion": 4130,
        "County": "Teton County",
        "FIPS": "16081",
        "Population": "10170",
        "State": "ID",
        "lat": 43.760994,
        "lon": -111.211765
    },
    {
        "Cases": 36,
        "CasesPerMillion": 3650,
        "County": "Valley County",
        "FIPS": "16085",
        "Population": "9862",
        "State": "ID",
        "lat": 44.771532,
        "lon": -115.637875
    },
    {
        "Cases": 244,
        "CasesPerMillion": 3636,
        "County": "Adams County",
        "FIPS": "17001",
        "Population": "67103",
        "State": "IL",
        "lat": 39.986053,
        "lon": -91.194961
    },
    {
        "Cases": 24,
        "CasesPerMillion": 1351,
        "County": "Bond County",
        "FIPS": "17005",
        "Population": "17768",
        "State": "IL",
        "lat": 38.885924,
        "lon": -89.436592
    },
    {
        "Cases": 10,
        "CasesPerMillion": 1442,
        "County": "Brown County",
        "FIPS": "17009",
        "Population": "6937",
        "State": "IL",
        "lat": 39.962069,
        "lon": -90.75031
    },
    {
        "Cases": 2,
        "CasesPerMillion": 393,
        "County": "Calhoun County",
        "FIPS": "17013",
        "Population": "5089",
        "State": "IL",
        "lat": 39.164262,
        "lon": -90.666295
    },
    {
        "Cases": 146,
        "CasesPerMillion": 10702,
        "County": "Cass County",
        "FIPS": "17017",
        "Population": "13642",
        "State": "IL",
        "lat": 39.969202,
        "lon": -90.245705
    },
    {
        "Cases": 55,
        "CasesPerMillion": 1580,
        "County": "Christian County",
        "FIPS": "17021",
        "Population": "34800",
        "State": "IL",
        "lat": 39.545524,
        "lon": -89.279593
    },
    {
        "Cases": 8,
        "CasesPerMillion": 579,
        "County": "Clay County",
        "FIPS": "17025",
        "Population": "13815",
        "State": "IL",
        "lat": 38.747312,
        "lon": -88.483789
    },
    {
        "Cases": 231,
        "CasesPerMillion": 4288,
        "County": "Coles County",
        "FIPS": "17029",
        "Population": "53873",
        "State": "IL",
        "lat": 39.51368,
        "lon": -88.220782
    },
    {
        "Cases": 23,
        "CasesPerMillion": 1161,
        "County": "Crawford County",
        "FIPS": "17033",
        "Population": "19817",
        "State": "IL",
        "lat": 39.00373,
        "lon": -87.757172
    },
    {
        "Cases": 691,
        "CasesPerMillion": 6571,
        "County": "DeKalb County",
        "FIPS": "17037",
        "Population": "105160",
        "State": "IL",
        "lat": 41.894613,
        "lon": -88.768991
    },
    {
        "Cases": 74,
        "CasesPerMillion": 3704,
        "County": "Douglas County",
        "FIPS": "17041",
        "Population": "19980",
        "State": "IL",
        "lat": 39.766078,
        "lon": -88.222866
    },
    {
        "Cases": 21,
        "CasesPerMillion": 1130,
        "County": "Edgar County",
        "FIPS": "17045",
        "Population": "18576",
        "State": "IL",
        "lat": 39.679037,
        "lon": -87.74711
    },
    {
        "Cases": 40,
        "CasesPerMillion": 1168,
        "County": "Effingham County",
        "FIPS": "17049",
        "Population": "34242",
        "State": "IL",
        "lat": 39.047694,
        "lon": -88.592786
    },
    {
        "Cases": 32,
        "CasesPerMillion": 2273,
        "County": "Ford County",
        "FIPS": "17053",
        "Population": "14081",
        "State": "IL",
        "lat": 40.594423,
        "lon": -88.224746
    },
    {
        "Cases": 18,
        "CasesPerMillion": 486,
        "County": "Fulton County",
        "FIPS": "17057",
        "Population": "37069",
        "State": "IL",
        "lat": 40.465688,
        "lon": -90.206793
    },
    {
        "Cases": 13,
        "CasesPerMillion": 936,
        "County": "Greene County",
        "FIPS": "17061",
        "Population": "13886",
        "State": "IL",
        "lat": 39.355444,
        "lon": -90.387757
    },
    {
        "Cases": 8,
        "CasesPerMillion": 946,
        "County": "Hamilton County",
        "FIPS": "17065",
        "Population": "8457",
        "State": "IL",
        "lat": 38.085226,
        "lon": -88.539005
    },
    {
        "Cases": 5,
        "CasesPerMillion": 1157,
        "County": "Hardin County",
        "FIPS": "17069",
        "Population": "4320",
        "State": "IL",
        "lat": 37.517852,
        "lon": -88.266148
    },
    {
        "Cases": 140,
        "CasesPerMillion": 2773,
        "County": "Henry County",
        "FIPS": "17073",
        "Population": "50486",
        "State": "IL",
        "lat": 41.350021,
        "lon": -90.130838
    },
    {
        "Cases": 389,
        "CasesPerMillion": 6460,
        "County": "Jackson County",
        "FIPS": "17077",
        "Population": "60218",
        "State": "IL",
        "lat": 37.786096,
        "lon": -89.381212
    },
    {
        "Cases": 127,
        "CasesPerMillion": 3271,
        "County": "Jefferson County",
        "FIPS": "17081",
        "Population": "38827",
        "State": "IL",
        "lat": 38.30078,
        "lon": -88.92421
    },
    {
        "Cases": 63,
        "CasesPerMillion": 2778,
        "County": "Jo Daviess County",
        "FIPS": "17085",
        "Population": "22678",
        "State": "IL",
        "lat": 42.362391,
        "lon": -90.211471
    },
    {
        "Cases": 8345,
        "CasesPerMillion": 16195,
        "County": "Kane County",
        "FIPS": "17089",
        "Population": "515269",
        "State": "IL",
        "lat": 41.939594,
        "lon": -88.42804
    },
    {
        "Cases": 1116,
        "CasesPerMillion": 9727,
        "County": "Kendall County",
        "FIPS": "17093",
        "Population": "114736",
        "State": "IL",
        "lat": 41.58814,
        "lon": -88.430626
    },
    {
        "Cases": 10767,
        "CasesPerMillion": 15306,
        "County": "Lake County",
        "FIPS": "17097",
        "Population": "703462",
        "State": "IL",
        "lat": 42.326444,
        "lon": -87.436118
    },
    {
        "Cases": 21,
        "CasesPerMillion": 1248,
        "County": "Lawrence County",
        "FIPS": "17101",
        "Population": "16833",
        "State": "IL",
        "lat": 38.718954,
        "lon": -87.730221
    },
    {
        "Cases": 58,
        "CasesPerMillion": 1489,
        "County": "Livingston County",
        "FIPS": "17105",
        "Population": "38950",
        "State": "IL",
        "lat": 40.894376,
        "lon": -88.552852
    },
    {
        "Cases": 112,
        "CasesPerMillion": 3434,
        "County": "McDonough County",
        "FIPS": "17109",
        "Population": "32612",
        "State": "IL",
        "lat": 40.455789,
        "lon": -90.677579
    },
    {
        "Cases": 382,
        "CasesPerMillion": 2253,
        "County": "McLean County",
        "FIPS": "17113",
        "Population": "169572",
        "State": "IL",
        "lat": 40.494559,
        "lon": -88.844539
    },
    {
        "Cases": 86,
        "CasesPerMillion": 1800,
        "County": "Macoupin County",
        "FIPS": "17117",
        "Population": "47765",
        "State": "IL",
        "lat": 39.2659,
        "lon": -89.926344
    },
    {
        "Cases": 88,
        "CasesPerMillion": 2231,
        "County": "Marion County",
        "FIPS": "17121",
        "Population": "39437",
        "State": "IL",
        "lat": 38.648396,
        "lon": -88.920221
    },
    {
        "Cases": 34,
        "CasesPerMillion": 2318,
        "County": "Mason County",
        "FIPS": "17125",
        "Population": "14666",
        "State": "IL",
        "lat": 40.236993,
        "lon": -89.913575
    },
    {
        "Cases": 34,
        "CasesPerMillion": 2676,
        "County": "Menard County",
        "FIPS": "17129",
        "Population": "12705",
        "State": "IL",
        "lat": 40.022569,
        "lon": -89.794133
    },
    {
        "Cases": 190,
        "CasesPerMillion": 5765,
        "County": "Monroe County",
        "FIPS": "17133",
        "Population": "32957",
        "State": "IL",
        "lat": 38.277983,
        "lon": -90.179078
    },
    {
        "Cases": 142,
        "CasesPerMillion": 3995,
        "County": "Morgan County",
        "FIPS": "17137",
        "Population": "35547",
        "State": "IL",
        "lat": 39.716806,
        "lon": -90.202277
    },
    {
        "Cases": 336,
        "CasesPerMillion": 6281,
        "County": "Ogle County",
        "FIPS": "17141",
        "Population": "53497",
        "State": "IL",
        "lat": 42.041884,
        "lon": -89.320176
    },
    {
        "Cases": 67,
        "CasesPerMillion": 2998,
        "County": "Perry County",
        "FIPS": "17145",
        "Population": "22350",
        "State": "IL",
        "lat": 38.084385,
        "lon": -89.368487
    },
    {
        "Cases": 9,
        "CasesPerMillion": 548,
        "County": "Pike County",
        "FIPS": "17149",
        "Population": "16430",
        "State": "IL",
        "lat": 39.625106,
        "lon": -90.889034
    },
    {
        "Cases": 87,
        "CasesPerMillion": 14121,
        "County": "Pulaski County",
        "FIPS": "17153",
        "Population": "6161",
        "State": "IL",
        "lat": 37.215615,
        "lon": -89.127755
    },
    {
        "Cases": 359,
        "CasesPerMillion": 10724,
        "County": "Randolph County",
        "FIPS": "17157",
        "Population": "33476",
        "State": "IL",
        "lat": 38.056515,
        "lon": -89.82121
    },
    {
        "Cases": 1321,
        "CasesPerMillion": 8953,
        "County": "Rock Island County",
        "FIPS": "17161",
        "Population": "147546",
        "State": "IL",
        "lat": 41.468404,
        "lon": -90.572203
    },
    {
        "Cases": 40,
        "CasesPerMillion": 1606,
        "County": "Saline County",
        "FIPS": "17165",
        "Population": "24913",
        "State": "IL",
        "lat": 37.751653,
        "lon": -88.545031
    },
    {
        "Cases": 14,
        "CasesPerMillion": 1856,
        "County": "Schuyler County",
        "FIPS": "17169",
        "Population": "7544",
        "State": "IL",
        "lat": 40.156905,
        "lon": -90.613464
    },
    {
        "Cases": 27,
        "CasesPerMillion": 1207,
        "County": "Shelby County",
        "FIPS": "17173",
        "Population": "22363",
        "State": "IL",
        "lat": 39.384926,
        "lon": -88.798862
    },
    {
        "Cases": 288,
        "CasesPerMillion": 6036,
        "County": "Stephenson County",
        "FIPS": "17177",
        "Population": "47711",
        "State": "IL",
        "lat": 42.349726,
        "lon": -89.665994
    },
    {
        "Cases": 229,
        "CasesPerMillion": 12859,
        "County": "Union County",
        "FIPS": "17181",
        "Population": "17808",
        "State": "IL",
        "lat": 37.475104,
        "lon": -89.252875
    },
    {
        "Cases": 23,
        "CasesPerMillion": 1925,
        "County": "Wabash County",
        "FIPS": "17185",
        "Population": "11947",
        "State": "IL",
        "lat": 38.445821,
        "lon": -87.839167
    },
    {
        "Cases": 30,
        "CasesPerMillion": 2039,
        "County": "Washington County",
        "FIPS": "17189",
        "Population": "14716",
        "State": "IL",
        "lat": 38.353141,
        "lon": -89.417187
    },
    {
        "Cases": 24,
        "CasesPerMillion": 1637,
        "County": "White County",
        "FIPS": "17193",
        "Population": "14665",
        "State": "IL",
        "lat": 38.087372,
        "lon": -88.178585
    },
    {
        "Cases": 7592,
        "CasesPerMillion": 11205,
        "County": "Will County",
        "FIPS": "17197",
        "Population": "677560",
        "State": "IL",
        "lat": 41.448474,
        "lon": -87.978456
    },
    {
        "Cases": 3318,
        "CasesPerMillion": 11237,
        "County": "Winnebago County",
        "FIPS": "17201",
        "Population": "295266",
        "State": "IL",
        "lat": 42.337396,
        "lon": -89.161205
    },
    {
        "Cases": 55,
        "CasesPerMillion": 1599,
        "County": "Adams County",
        "FIPS": "18001",
        "Population": "34387",
        "State": "IN",
        "lat": 40.745733,
        "lon": -84.936131
    },
    {
        "Cases": 628,
        "CasesPerMillion": 8178,
        "County": "Bartholomew County",
        "FIPS": "18005",
        "Population": "76794",
        "State": "IN",
        "lat": 39.205843,
        "lon": -85.897999
    },
    {
        "Cases": 44,
        "CasesPerMillion": 3447,
        "County": "Blackford County",
        "FIPS": "18009",
        "Population": "12766",
        "State": "IN",
        "lat": 40.472672,
        "lon": -85.32373
    },
    {
        "Cases": 53,
        "CasesPerMillion": 3477,
        "County": "Brown County",
        "FIPS": "18013",
        "Population": "15242",
        "State": "IN",
        "lat": 39.192585,
        "lon": -86.23941
    },
    {
        "Cases": 1663,
        "CasesPerMillion": 42678,
        "County": "Cass County",
        "FIPS": "18017",
        "Population": "38966",
        "State": "IN",
        "lat": 40.753799,
        "lon": -86.355169
    },
    {
        "Cases": 70,
        "CasesPerMillion": 2603,
        "County": "Clay County",
        "FIPS": "18021",
        "Population": "26890",
        "State": "IN",
        "lat": 39.393951,
        "lon": -87.115837
    },
    {
        "Cases": 36,
        "CasesPerMillion": 3360,
        "County": "Crawford County",
        "FIPS": "18025",
        "Population": "10713",
        "State": "IN",
        "lat": 38.289433,
        "lon": -86.440871
    },
    {
        "Cases": 310,
        "CasesPerMillion": 6194,
        "County": "Dearborn County",
        "FIPS": "18029",
        "Population": "50047",
        "State": "IN",
        "lat": 39.151491,
        "lon": -84.97346
    },
    {
        "Cases": 174,
        "CasesPerMillion": 4121,
        "County": "DeKalb County",
        "FIPS": "18033",
        "Population": "42223",
        "State": "IN",
        "lat": 41.401189,
        "lon": -85.000185
    },
    {
        "Cases": 402,
        "CasesPerMillion": 9597,
        "County": "Dubois County",
        "FIPS": "18037",
        "Population": "41889",
        "State": "IN",
        "lat": 38.373344,
        "lon": -86.873385
    },
    {
        "Cases": 114,
        "CasesPerMillion": 4696,
        "County": "Fayette County",
        "FIPS": "18041",
        "Population": "24277",
        "State": "IN",
        "lat": 39.639655,
        "lon": -85.185032
    },
    {
        "Cases": 43,
        "CasesPerMillion": 2494,
        "County": "Fountain County",
        "FIPS": "18045",
        "Population": "17240",
        "State": "IN",
        "lat": 40.121282,
        "lon": -87.234806
    },
    {
        "Cases": 86,
        "CasesPerMillion": 4127,
        "County": "Fulton County",
        "FIPS": "18049",
        "Population": "20836",
        "State": "IN",
        "lat": 41.050384,
        "lon": -86.265006
    },
    {
        "Cases": 380,
        "CasesPerMillion": 5424,
        "County": "Grant County",
        "FIPS": "18053",
        "Population": "70061",
        "State": "IN",
        "lat": 40.515758,
        "lon": -85.654946
    },
    {
        "Cases": 1888,
        "CasesPerMillion": 6876,
        "County": "Hamilton County",
        "FIPS": "18057",
        "Population": "274569",
        "State": "IN",
        "lat": 40.04987,
        "lon": -86.020586
    },
    {
        "Cases": 226,
        "CasesPerMillion": 5741,
        "County": "Harrison County",
        "FIPS": "18061",
        "Population": "39364",
        "State": "IN",
        "lat": 38.18644,
        "lon": -86.103681
    },
    {
        "Cases": 316,
        "CasesPerMillion": 6389,
        "County": "Henry County",
        "FIPS": "18065",
        "Population": "49462",
        "State": "IN",
        "lat": 39.929576,
        "lon": -85.397338
    },
    {
        "Cases": 102,
        "CasesPerMillion": 2748,
        "County": "Huntington County",
        "FIPS": "18069",
        "Population": "37124",
        "State": "IN",
        "lat": 40.826394,
        "lon": -85.478598
    },
    {
        "Cases": 157,
        "CasesPerMillion": 4690,
        "County": "Jasper County",
        "FIPS": "18073",
        "Population": "33478",
        "State": "IN",
        "lat": 41.017688,
        "lon": -87.118814
    },
    {
        "Cases": 122,
        "CasesPerMillion": 3762,
        "County": "Jefferson County",
        "FIPS": "18077",
        "Population": "32428",
        "State": "IN",
        "lat": 38.783604,
        "lon": -85.44009
    },
    {
        "Cases": 1418,
        "CasesPerMillion": 10154,
        "County": "Johnson County",
        "FIPS": "18081",
        "Population": "139654",
        "State": "IN",
        "lat": 39.495986,
        "lon": -86.0946
    },
    {
        "Cases": 632,
        "CasesPerMillion": 8170,
        "County": "Kosciusko County",
        "FIPS": "18085",
        "Population": "77358",
        "State": "IN",
        "lat": 41.244293,
        "lon": -85.861575
    },
    {
        "Cases": 6083,
        "CasesPerMillion": 12264,
        "County": "Lake County",
        "FIPS": "18089",
        "Population": "496005",
        "State": "IN",
        "lat": 41.472239,
        "lon": -87.374337
    },
    {
        "Cases": 275,
        "CasesPerMillion": 5961,
        "County": "Lawrence County",
        "FIPS": "18093",
        "Population": "46134",
        "State": "IN",
        "lat": 38.839815,
        "lon": -86.48782
    },
    {
        "Cases": 12609,
        "CasesPerMillion": 13957,
        "County": "Marion County",
        "FIPS": "18097",
        "Population": "903393",
        "State": "IN",
        "lat": 39.782976,
        "lon": -86.135794
    },
    {
        "Cases": 30,
        "CasesPerMillion": 2903,
        "County": "Martin County",
        "FIPS": "18101",
        "Population": "10334",
        "State": "IN",
        "lat": 38.705322,
        "lon": -86.801847
    },
    {
        "Cases": 446,
        "CasesPerMillion": 3232,
        "County": "Monroe County",
        "FIPS": "18105",
        "Population": "137974",
        "State": "IN",
        "lat": 39.160751,
        "lon": -86.523325
    },
    {
        "Cases": 365,
        "CasesPerMillion": 5298,
        "County": "Morgan County",
        "FIPS": "18109",
        "Population": "68894",
        "State": "IN",
        "lat": 39.482646,
        "lon": -86.447457
    },
    {
        "Cases": 551,
        "CasesPerMillion": 11591,
        "County": "Noble County",
        "FIPS": "18113",
        "Population": "47536",
        "State": "IN",
        "lat": 41.400794,
        "lon": -85.41785
    },
    {
        "Cases": 146,
        "CasesPerMillion": 7359,
        "County": "Orange County",
        "FIPS": "18117",
        "Population": "19840",
        "State": "IN",
        "lat": 38.547381,
        "lon": -86.489257
    },
    {
        "Cases": 30,
        "CasesPerMillion": 1730,
        "County": "Parke County",
        "FIPS": "18121",
        "Population": "17339",
        "State": "IN",
        "lat": 39.77425,
        "lon": -87.19695
    },
    {
        "Cases": 18,
        "CasesPerMillion": 1401,
        "County": "Pike County",
        "FIPS": "18125",
        "Population": "12845",
        "State": "IN",
        "lat": 38.397898,
        "lon": -87.232532
    },
    {
        "Cases": 91,
        "CasesPerMillion": 3512,
        "County": "Posey County",
        "FIPS": "18129",
        "Population": "25910",
        "State": "IN",
        "lat": 38.027614,
        "lon": -87.868653
    },
    {
        "Cases": 189,
        "CasesPerMillion": 4979,
        "County": "Putnam County",
        "FIPS": "18133",
        "Population": "37963",
        "State": "IN",
        "lat": 39.665545,
        "lon": -86.853325
    },
    {
        "Cases": 151,
        "CasesPerMillion": 5240,
        "County": "Ripley County",
        "FIPS": "18137",
        "Population": "28818",
        "State": "IN",
        "lat": 39.10023,
        "lon": -85.260541
    },
    {
        "Cases": 2433,
        "CasesPerMillion": 9115,
        "County": "St. Joseph County",
        "FIPS": "18141",
        "Population": "266931",
        "State": "IN",
        "lat": 41.617699,
        "lon": -86.288159
    },
    {
        "Cases": 474,
        "CasesPerMillion": 10667,
        "County": "Shelby County",
        "FIPS": "18145",
        "Population": "44436",
        "State": "IN",
        "lat": 39.524135,
        "lon": -85.792174
    },
    {
        "Cases": 130,
        "CasesPerMillion": 5564,
        "County": "Starke County",
        "FIPS": "18149",
        "Population": "23363",
        "State": "IN",
        "lat": 41.28322,
        "lon": -86.64757
    },
    {
        "Cases": 64,
        "CasesPerMillion": 2980,
        "County": "Sullivan County",
        "FIPS": "18153",
        "Population": "21475",
        "State": "IN",
        "lat": 39.089225,
        "lon": -87.415843
    },
    {
        "Cases": 852,
        "CasesPerMillion": 4931,
        "County": "Tippecanoe County",
        "FIPS": "18157",
        "Population": "172780",
        "State": "IN",
        "lat": 40.38926,
        "lon": -86.893943
    },
    {
        "Cases": 17,
        "CasesPerMillion": 2262,
        "County": "Union County",
        "FIPS": "18161",
        "Population": "7516",
        "State": "IN",
        "lat": 39.623111,
        "lon": -84.925152
    },
    {
        "Cases": 20,
        "CasesPerMillion": 1234,
        "County": "Vermillion County",
        "FIPS": "18165",
        "Population": "16212",
        "State": "IN",
        "lat": 39.854045,
        "lon": -87.462071
    },
    {
        "Cases": 123,
        "CasesPerMillion": 3740,
        "County": "Wabash County",
        "FIPS": "18169",
        "Population": "32888",
        "State": "IN",
        "lat": 40.843717,
        "lon": -85.795175
    },
    {
        "Cases": 319,
        "CasesPerMillion": 5344,
        "County": "Warrick County",
        "FIPS": "18173",
        "Population": "59689",
        "State": "IN",
        "lat": 38.097764,
        "lon": -87.272023
    },
    {
        "Cases": 194,
        "CasesPerMillion": 2815,
        "County": "Wayne County",
        "FIPS": "18177",
        "Population": "68917",
        "State": "IN",
        "lat": 39.863091,
        "lon": -85.006735
    },
    {
        "Cases": 295,
        "CasesPerMillion": 11971,
        "County": "White County",
        "FIPS": "18181",
        "Population": "24643",
        "State": "IN",
        "lat": 40.75095,
        "lon": -86.864293
    },
    {
        "Cases": 19,
        "CasesPerMillion": 2473,
        "County": "Adair County",
        "FIPS": "19001",
        "Population": "7682",
        "State": "IA",
        "lat": 41.328528,
        "lon": -94.478164
    },
    {
        "Cases": 139,
        "CasesPerMillion": 9700,
        "County": "Allamakee County",
        "FIPS": "19005",
        "Population": "14330",
        "State": "IA",
        "lat": 43.274964,
        "lon": -91.382751
    },
    {
        "Cases": 19,
        "CasesPerMillion": 3105,
        "County": "Audubon County",
        "FIPS": "19009",
        "Population": "6119",
        "State": "IA",
        "lat": 41.679178,
        "lon": -94.904312
    },
    {
        "Cases": 2650,
        "CasesPerMillion": 20215,
        "County": "Black Hawk County",
        "FIPS": "19013",
        "Population": "131090",
        "State": "IA",
        "lat": 42.472888,
        "lon": -92.306059
    },
    {
        "Cases": 130,
        "CasesPerMillion": 5355,
        "County": "Bremer County",
        "FIPS": "19017",
        "Population": "24276",
        "State": "IA",
        "lat": 42.78089,
        "lon": -92.327586
    },
    {
        "Cases": 1750,
        "CasesPerMillion": 86377,
        "County": "Buena Vista County",
        "FIPS": "19021",
        "Population": "20260",
        "State": "IA",
        "lat": 42.741522,
        "lon": -95.141433
    },
    {
        "Cases": 68,
        "CasesPerMillion": 7032,
        "County": "Calhoun County",
        "FIPS": "19025",
        "Population": "9670",
        "State": "IA",
        "lat": 42.38617,
        "lon": -94.643683
    },
    {
        "Cases": 29,
        "CasesPerMillion": 2078,
        "County": "Cass County",
        "FIPS": "19029",
        "Population": "13956",
        "State": "IA",
        "lat": 41.333824,
        "lon": -94.933302
    },
    {
        "Cases": 395,
        "CasesPerMillion": 8947,
        "County": "Cerro Gordo County",
        "FIPS": "19033",
        "Population": "44151",
        "State": "IA",
        "lat": 43.075171,
        "lon": -93.251266
    },
    {
        "Cases": 35,
        "CasesPerMillion": 2814,
        "County": "Chickasaw County",
        "FIPS": "19037",
        "Population": "12439",
        "State": "IA",
        "lat": 43.059741,
        "lon": -92.31721
    },
    {
        "Cases": 155,
        "CasesPerMillion": 9300,
        "County": "Clay County",
        "FIPS": "19041",
        "Population": "16667",
        "State": "IA",
        "lat": 43.079822,
        "lon": -95.149726
    },
    {
        "Cases": 157,
        "CasesPerMillion": 3197,
        "County": "Clinton County",
        "FIPS": "19045",
        "Population": "49116",
        "State": "IA",
        "lat": 41.898073,
        "lon": -90.534243
    },
    {
        "Cases": 1504,
        "CasesPerMillion": 22741,
        "County": "Dallas County",
        "FIPS": "19049",
        "Population": "66135",
        "State": "IA",
        "lat": 41.685321,
        "lon": -94.040707
    },
    {
        "Cases": 15,
        "CasesPerMillion": 1774,
        "County": "Decatur County",
        "FIPS": "19053",
        "Population": "8457",
        "State": "IA",
        "lat": 40.736379,
        "lon": -93.78458
    },
    {
        "Cases": 112,
        "CasesPerMillion": 2777,
        "County": "Des Moines County",
        "FIPS": "19057",
        "Population": "40325",
        "State": "IA",
        "lat": 40.915339,
        "lon": -91.186925
    },
    {
        "Cases": 1136,
        "CasesPerMillion": 12130,
        "County": "Dubuque County",
        "FIPS": "19061",
        "Population": "93653",
        "State": "IA",
        "lat": 42.463481,
        "lon": -90.878771
    },
    {
        "Cases": 63,
        "CasesPerMillion": 3017,
        "County": "Fayette County",
        "FIPS": "19065",
        "Population": "20880",
        "State": "IA",
        "lat": 42.86445,
        "lon": -91.839373
    },
    {
        "Cases": 129,
        "CasesPerMillion": 12079,
        "County": "Franklin County",
        "FIPS": "19069",
        "Population": "10680",
        "State": "IA",
        "lat": 42.736549,
        "lon": -93.271425
    },
    {
        "Cases": 34,
        "CasesPerMillion": 3642,
        "County": "Greene County",
        "FIPS": "19073",
        "Population": "9336",
        "State": "IA",
        "lat": 42.042494,
        "lon": -94.388703
    },
    {
        "Cases": 95,
        "CasesPerMillion": 8673,
        "County": "Guthrie County",
        "FIPS": "19077",
        "Population": "10954",
        "State": "IA",
        "lat": 41.683573,
        "lon": -94.501272
    },
    {
        "Cases": 73,
        "CasesPerMillion": 6437,
        "County": "Hancock County",
        "FIPS": "19081",
        "Population": "11341",
        "State": "IA",
        "lat": 43.075411,
        "lon": -93.743697
    },
    {
        "Cases": 68,
        "CasesPerMillion": 4555,
        "County": "Harrison County",
        "FIPS": "19085",
        "Population": "14928",
        "State": "IA",
        "lat": 41.688584,
        "lon": -95.827149
    },
    {
        "Cases": 40,
        "CasesPerMillion": 4181,
        "County": "Howard County",
        "FIPS": "19089",
        "Population": "9566",
        "State": "IA",
        "lat": 43.365313,
        "lon": -92.321908
    },
    {
        "Cases": 24,
        "CasesPerMillion": 3386,
        "County": "Ida County",
        "FIPS": "19093",
        "Population": "7089",
        "State": "IA",
        "lat": 42.39186,
        "lon": -95.507421
    },
    {
        "Cases": 86,
        "CasesPerMillion": 4333,
        "County": "Jackson County",
        "FIPS": "19097",
        "Population": "19848",
        "State": "IA",
        "lat": 42.164281,
        "lon": -90.574597
    },
    {
        "Cases": 64,
        "CasesPerMillion": 3800,
        "County": "Jefferson County",
        "FIPS": "19101",
        "Population": "16843",
        "State": "IA",
        "lat": 41.00688,
        "lon": -91.967137
    },
    {
        "Cases": 85,
        "CasesPerMillion": 4119,
        "County": "Jones County",
        "FIPS": "19105",
        "Population": "20638",
        "State": "IA",
        "lat": 42.125118,
        "lon": -91.116914
    },
    {
        "Cases": 62,
        "CasesPerMillion": 3989,
        "County": "Kossuth County",
        "FIPS": "19109",
        "Population": "15543",
        "State": "IA",
        "lat": 43.212478,
        "lon": -94.213983
    },
    {
        "Cases": 1528,
        "CasesPerMillion": 7234,
        "County": "Linn County",
        "FIPS": "19113",
        "Population": "211226",
        "State": "IA",
        "lat": 42.077951,
        "lon": -91.597674
    },
    {
        "Cases": 38,
        "CasesPerMillion": 4271,
        "County": "Lucas County",
        "FIPS": "19117",
        "Population": "8898",
        "State": "IA",
        "lat": 41.033344,
        "lon": -93.331467
    },
    {
        "Cases": 65,
        "CasesPerMillion": 4146,
        "County": "Madison County",
        "FIPS": "19121",
        "Population": "15679",
        "State": "IA",
        "lat": 41.330622,
        "lon": -94.015184
    },